[
    {
        "name": "Електромережа",
        "lat": 49.21401240988206,
        "lng": 28.431555032730103,
        "id": "tr001",
        "lines": [1, 3, 5]
    },
    {
        "name": "Лікарня ім. Академіка Ющенка",
        "lat": 49.21740701422585,
        "lng": 28.437293618917465,
        "id": "tr002",
        "lines": [1, 3, 5]
    },
    {
        "name": "вул. Дачна",
        "lat": 49.220224139795896,
        "lng": 28.440366089344025,
        "id": "tr003",
        "lines": [1, 3, 5]
    },
    {
        "name": "вул. Академіка Заболотного",
        "lat": 49.22277220368535,
        "lng": 28.443177044391632,
        "id": "tr004",
        "lines": [1, 3, 5]
    },
    {
        "name": "Медичний університет",
        "lat": 49.22683271737633,
        "lng": 28.44810962677002,
        "id": "tr005",
        "lines": [1, 2, 5, 6]
    },
    {
        "name": "Лікарня ім. Пирогова",
        "lat": 49.229547715094625,
        "lng": 28.453216552734375,
        "id": "tr006",
        "lines": [1, 2, 5, 6]
    },
    {
        "name": "вул. Зої Космодем'янської",
        "lat": 49.23166706123391,
        "lng": 28.456681966781616,
        "id": "tr007",
        "lines": [1, 2, 5, 6]
    },
    {
        "name": "вул. Театральна",
        "lat": 49.23405603332547,
        "lng": 28.462459444999695,
        "id": "tr008",
        "lines": [1, 4, 6]
    },
    {
        "name": "вул. Інтернаціональна",
        "lat": 49.23267240521106,
        "lng": 28.47160577774048,
        "id": "tr009",
        "lines": [1, 4, 6]
    },
    {
        "name": "Музей Коцюбинського",
        "lat": 49.23719094604461,
        "lng": 28.48977506160736,
        "id": "tr010",
        "lines": [1, 4, 6]
    },
    {
        "name": "пл. Перемоги",
        "lat": 49.238707541901654,
        "lng": 28.492913246154785,
        "id": "tr011",
        "lines": [1, 4, 6]
    },
    {
        "name": "Центральний міський стадіон",
        "lat": 49.242584631831924,
        "lng": 28.493229746818542,
        "id": "tr012",
        "lines": [1, 4, 6]
    },
    {
        "name": "вул. Фрунзе",
        "lat": 49.246023674552006,
        "lng": 28.494415283203125,
        "id": "tr013",
        "lines": [1, 4, 6]
    },
    {
        "name": "вул. Некрасова",
        "lat": 49.246219783822355,
        "lng": 28.499704599380493,
        "id": "tr014",
        "lines": [1, 4, 6]
    },
    {
        "name": "Хімпром",
        "lat": 49.2465629731713,
        "lng": 28.5073059797287,
        "id": "tr015",
        "lines": [1, 4, 6]
    },
    {
        "name": "Залізничний вокзал",
        "lat": 49.24080898343652,
        "lng": 28.509725332260132,
        "id": "tr016",
        "lines": [1, 4, 6]
    }
]
